{
    "places": [
        {
            "id": "1",
            "place_name": "Hinjawadi Maan Phase 3",
            "latitude": "18.5765513",
            "longitude": "73.6884515"
        },
        {
            "id": "2",
            "place_name": "Ma Na Pa",
            "latitude": "18.516726",
            "longitude": "73.856255"
        },
        {
            "id": "3",
            "place_name": "Kondhwa Bk",
            "latitude": "18.4779905",
            "longitude": "73.8940627"
        },
        {
            "id": "4",
            "place_name": "Kothrud Depot",
            "latitude": "18.506238",
            "longitude": "73.79512500461689"
        },
        {
            "id": "5",
            "place_name": "Lohgaon",
            "latitude": "20.5277227",
            "longitude": "77.3524403"
        },
        {
            "id": "6",
            "place_name": "Katraj (Vai Kothrud Depo)",
            "latitude": "18.501805",
            "longitude": "73.809360"
        },
        {
            "id": "7",
            "place_name": "Katraj",
            "latitude": "18.4536792",
            "longitude": "73.8563196"
        },
        {
            "id": "8",
            "place_name": "Hinjawadi Maan Phase 3 (Vai Kothrud Depo)",
            "latitude": "18.588400",
            "longitude": "73.682390"
        },
        {
            "id": "9",
            "place_name": "Swargate",
            "latitude": "18.49968545",
            "longitude": "73.85688275180982"
        },
        {
            "id": "10",
            "place_name": "DSK Vishwa",
            "latitude": "18.4424221",
            "longitude": "73.79867221335698"
        },
        {
            "id": "11",
            "place_name": "Deccan Gymkhana",
            "latitude": "18.5158926",
            "longitude": "73.84116"
        },
        {
            "id": "12",
            "place_name": "Balewadi Depot",
            "latitude": "18.5733501",
            "longitude": "73.76518108723874"
        },
        {
            "id": "13",
            "place_name": "Galinde Path",
            "latitude": "18.4846",
            "longitude": "73.8103"
        },
        {
            "id": "14",
            "place_name": "Pimplegurav",
            "latitude": "18.5866",
            "longitude": "73.8134"
        },
        {
            "id": "15",
            "place_name": "Pune Station",
            "latitude": "18.5288773",
            "longitude": "73.8744146"
        },
        {
            "id": "16",
            "place_name": "Sutardara",
            "latitude": "18.5154515",
            "longitude": "73.8078251"
        },
        {
            "id": "17",
            "place_name": "Keshavnagar",
            "latitude": "18.5324",
            "longitude": "73.9441"
        },
        {
            "id": "18",
            "place_name": "Bhekrainagar",
            "latitude": "18.4846312",
            "longitude": "73.9531503"
        },
        {
            "id": "19",
            "place_name": "Mandai",
            "latitude": "23.8673152",
            "longitude": "91.45558329197948"
        },
        {
            "id": "20",
            "place_name": "Appa Balawant Chowk",
            "latitude": "19.172670",
            "longitude": "72.962080"
        },
        {
            "id": "21",
            "place_name": "Vasantdada Putala Sangvi",
            "latitude": "18.059986",
            "longitude": "74.486023"
        },
        {
            "id": "22",
            "place_name": "Mhalungegaon",
            "latitude": "18.5746",
            "longitude": "73.7554"
        },
        {
            "id": "23",
            "place_name": "Khadki Bazar",
            "latitude": "19.4157436",
            "longitude": "77.8330707"
        },
        {
            "id": "24",
            "place_name": "Shree Control",
            "latitude": "18.441833",
            "longitude": "73.812157"
        },
        {
            "id": "25",
            "place_name": "Raykarmala",
            "latitude": "18.428293",
            "longitude": "73.811184"
        },
        {
            "id": "26",
            "place_name": "Dhayari Maruti Mandir",
            "latitude": "18.4426514",
            "longitude": "73.8093442"
        },
        {
            "id": "27",
            "place_name": "Saritanagari",
            "latitude": "18.4915",
            "longitude": "73.8308"
        },
        {
            "id": "28",
            "place_name": "Shaniwarwada Stand",
            "latitude": "18.520187",
            "longitude": "73.851279"
        },
        {
            "id": "29",
            "place_name": "Shaniwarwada",
            "latitude": "18.51938255",
            "longitude": "73.85535656171828"
        },
        {
            "id": "30",
            "place_name": "Marketyard",
            "latitude": "18.48571425",
            "longitude": "73.86705643518997"
        },
        {
            "id": "31",
            "place_name": "Venutai Chavan College",
            "latitude": "17.3080202",
            "longitude": "74.18977091340739"
        },
        {
            "id": "32",
            "place_name": "Suncity",
            "latitude": "21.590052",
            "longitude": "73.02872527612034"
        },
        {
            "id": "33",
            "place_name": "Vadgaon Bk",
            "latitude": "20.6925848",
            "longitude": "75.3732276"
        },
        {
            "id": "34",
            "place_name": "Nanded",
            "latitude": "19.09400875",
            "longitude": "77.48319215130235"
        },
        {
            "id": "35",
            "place_name": "Alandi",
            "latitude": "18.6772446",
            "longitude": "73.8981129"
        },
        {
            "id": "36",
            "place_name": "Vishrantwadi",
            "latitude": "18.57263",
            "longitude": "73.87825"
        },
        {
            "id": "37",
            "place_name": "Kalpataru",
            "latitude": "18.6008",
            "longitude": "73.8153"
        },
        {
            "id": "38",
            "place_name": "Indoorance System",
            "latitude": "18.75504",
            "longitude": "73.808585"
        },
        {
            "id": "39",
            "place_name": "Bhosari",
            "latitude": "18.6210093",
            "longitude": "73.8501298"
        },
        {
            "id": "40",
            "place_name": "Indoorance System Chakan Mhalunge",
            "latitude": "18.75504",
            "longitude": "73.808585"
        },
        {
            "id": "41",
            "place_name": "Bhosari Terminal",
            "latitude": "18.62435525",
            "longitude": "73.85142099873451"
        },
        {
            "id": "42",
            "place_name": "Nehrunagar Depo",
            "latitude": "18.6307",
            "longitude": "73.8250"
        },
        {
            "id": "43",
            "place_name": "Chinchwadgaon",
            "latitude": "19.0706534",
            "longitude": "76.0951254"
        },
        {
            "id": "44",
            "place_name": "Bhakti Shakti",
            "latitude": "18.6641349",
            "longitude": "73.77154304233524"
        },
        {
            "id": "45",
            "place_name": "Dapodi Mantri Niketan",
            "latitude": "18.5801",
            "longitude": "73.8304"
        },
        {
            "id": "46",
            "place_name": "Bopkhel",
            "latitude": "20.9008656",
            "longitude": "74.0158876"
        },
        {
            "id": "47",
            "place_name": "Kamalpark",
            "latitude": "18.5938",
            "longitude": "73.9038"
        },
        {
            "id": "48",
            "place_name": "Pimple nilakh",
            "latitude": "18.5790",
            "longitude": "73.7860"
        },
        {
            "id": "49",
            "place_name": "Upper Depot",
            "latitude": "18.4604443",
            "longitude": "73.87207755914659"
        },
        {
            "id": "50",
            "place_name": "Yewalewadi",
            "latitude": "18.4358283",
            "longitude": "73.8963635"
        },
        {
            "id": "51",
            "place_name": "Shivajinagar",
            "latitude": "18.532248199999998",
            "longitude": "73.84990967997429"
        },
        {
            "id": "52",
            "place_name": "Vadgaon sheri",
            "latitude": "18.5513",
            "longitude": "73.9210"
        },
        {
            "id": "53",
            "place_name": "Ma Na Pa (Via Shubham)",
            "latitude": "18.516726",
            "longitude": "73.856255"
        },
        {
            "id": "54",
            "place_name": "Vadgaonsheri (Via Shubham)",
            "latitude": "18.5513",
            "longitude": "73.9210"
        },
        {
            "id": "55",
            "place_name": "Shubham Society Nagar Road",
            "latitude": "19.125211",
            "longitude": "72.82229337216542"
        },
        {
            "id": "56",
            "place_name": "Vadgaon Sheri",
            "latitude": "18.5513",
            "longitude": "73.9210"
        },
        {
            "id": "57",
            "place_name": "Ma Na Pa (Via Anand Park)",
            "latitude": "18.516726",
            "longitude": "73.856255"
        },
        {
            "id": "58",
            "place_name": "Vadgaon Sheri (Via Anand Park)",
            "latitude": "18.5513",
            "longitude": "73.9210"
        },
        {
            "id": "59",
            "place_name": "Anand Park",
            "latitude": "22.75493875",
            "longitude": "75.88351907555493"
        },
        {
            "id": "60",
            "place_name": "Sainathnagar",
            "latitude": "19.0361969",
            "longitude": "72.94850911854839"
        },
        {
            "id": "61",
            "place_name": "Sainath nagar",
            "latitude": "19.0941778",
            "longitude": "72.9108738"
        },
        {
            "id": "62",
            "place_name": "Vidyanagar",
            "latitude": "16.67796705",
            "longitude": "74.25156159337516"
        },
        {
            "id": "63",
            "place_name": "Wadebolhai",
            "latitude": "18.585783",
            "longitude": "74.078205"
        },
        {
            "id": "64",
            "place_name": "Kesnand Phata",
            "latitude": "18.5807042",
            "longitude": "73.9877302"
        },
        {
            "id": "65",
            "place_name": "Vadegaon",
            "latitude": "18.466921",
            "longitude": "73.826561"
        },
        {
            "id": "66",
            "place_name": "Shewalewadi",
            "latitude": "18.4500",
            "longitude": "73.9411"
        },
        {
            "id": "67",
            "place_name": "VIT College",
            "latitude": "18.46376965",
            "longitude": "73.86820674780807"
        },
        {
            "id": "68",
            "place_name": "Vit College",
            "latitude": "18.46376965",
            "longitude": "73.86820674780807"
        },
        {
            "id": "69",
            "place_name": "Pune Vidhyapeeth",
            "latitude": "18.4566136",
            "longitude": "73.8563024"
        },
        {
            "id": "70",
            "place_name": "Upper Depo",
            "latitude": "18.4611",
            "longitude": "73.8719"
        },
        {
            "id": "71",
            "place_name": "Lake Town Society",
            "latitude": "18.4577",
            "longitude": "73.8632"
        },
        {
            "id": "72",
            "place_name": "Khandoba Mandir",
            "latitude": "18.51765665",
            "longitude": "73.76828673363575"
        },
        {
            "id": "73",
            "place_name": "Ghotawade Phata",
            "latitude": "18.5130315",
            "longitude": "73.6780046"
        },
        {
            "id": "74",
            "place_name": "Galinde Path (Vai Nal Stop)",
            "latitude": "18.4846",
            "longitude": "73.8103"
        },
        {
            "id": "75",
            "place_name": "Pune Station (Vai Nal Stop)",
            "latitude": "18.5285",
            "longitude": "73.8744"
        },
        {
            "id": "76",
            "place_name": "Galinde Path (Vai Mhatre Pul)",
            "latitude": "18.4846",
            "longitude": "73.8103"
        },
        {
            "id": "77",
            "place_name": "Pune Station (Vai Mhatre Pul)",
            "latitude": "18.5285",
            "longitude": "73.8744"
        },
        {
            "id": "78",
            "place_name": "Sai Sayajinagar",
            "latitude": "18.4913",
            "longitude": "73.7925"
        },
        {
            "id": "79",
            "place_name": "Kumbre Park",
            "latitude": "18.5046048",
            "longitude": "73.7980811539952"
        },
        {
            "id": "80",
            "place_name": "Kothrud Stand",
            "latitude": "18.4993006",
            "longitude": "73.8138217"
        },
        {
            "id": "81",
            "place_name": "Kumbare Park",
            "latitude": "18.5030721",
            "longitude": "73.7981466"
        },
        {
            "id": "82",
            "place_name": "Gujrat Colony",
            "latitude": "32.5887968",
            "longitude": "74.08349833671714"
        },
        {
            "id": "83",
            "place_name": "D2 Circle",
            "latitude": "32.0028837",
            "longitude": "34.8746536"
        },
        {
            "id": "84",
            "place_name": "Sutarwadi Pashan",
            "latitude": "18.5408939",
            "longitude": "73.7848772"
        },
        {
            "id": "85",
            "place_name": "NDA Golmarket",
            "latitude": "18.4666",
            "longitude": "73.7647"
        },
        {
            "id": "86",
            "place_name": "NDA Gol Market",
            "latitude": "18.4666054",
            "longitude": "73.76471546826554"
        },
        {
            "id": "87",
            "place_name": "Gokhalenagar",
            "latitude": "18.5292",
            "longitude": "73.8271"
        },
        {
            "id": "88",
            "place_name": "Nhavi Sandas",
            "latitude": "18.60527175",
            "longitude": "74.1563678639168"
        },
        {
            "id": "89",
            "place_name": "Pimpri",
            "latitude": "18.6229526",
            "longitude": "73.8025117"
        },
        {
            "id": "90",
            "place_name": "Munjabavasti",
            "latitude": "18.5866",
            "longitude": "73.8963"
        },
        {
            "id": "91",
            "place_name": "Dhanorigaon",
            "latitude": "18.59116256786",
            "longitude": "73.895598448452"
        },
        {
            "id": "92",
            "place_name": "Pune Station (Via Dhanori)",
            "latitude": "18.5285",
            "longitude": "73.8744"
        },
        {
            "id": "93",
            "place_name": "Lohgaon (Via Dhanori)",
            "latitude": "18.5945",
            "longitude": "73.9276"
        },
        {
            "id": "94",
            "place_name": "Dadachi Padal",
            "latitude": "18.5932",
            "longitude": "73.9417"
        },
        {
            "id": "95",
            "place_name": "Talegaon Dhamdhere",
            "latitude": "18.6676999",
            "longitude": "74.1527672"
        },
        {
            "id": "96",
            "place_name": "Koregaon Bhima",
            "latitude": "18.57718",
            "longitude": "74.23445"
        },
        {
            "id": "97",
            "place_name": "Pabal Phata",
            "latitude": "18.39915",
            "longitude": "73.7773"
        },
        {
            "id": "98",
            "place_name": "Mundhwagaon",
            "latitude": "18.5330",
            "longitude": "73.9330"
        },
        {
            "id": "99",
            "place_name": "Vimannagar",
            "latitude": "18.5677772",
            "longitude": "73.9183559"
        },
        {
            "id": "100",
            "place_name": "Warje Malwadi",
            "latitude": "18.4739061",
            "longitude": "73.8009647"
        },
        {
            "id": "101",
            "place_name": "Kendurgaon",
            "latitude": "18.7823",
            "longitude": "74.0385"
        },
        {
            "id": "102",
            "place_name": "Kharadi Gaon",
            "latitude": "18.5471",
            "longitude": "73.9470"
        },
        {
            "id": "103",
            "place_name": "Hadapsar Gadital",
            "latitude": "18.5004747",
            "longitude": "73.9388957"
        },
        {
            "id": "104",
            "place_name": "Ma Na Pa (Vai Koregaon Park)",
            "latitude": "18.5238",
            "longitude": "73.8554"
        },
        {
            "id": "105",
            "place_name": "Keshavnagar (Vai Koregaon Park)",
            "latitude": "18.5324",
            "longitude": "73.9441"
        },
        {
            "id": "106",
            "place_name": "Kondhwa Hospital",
            "latitude": "18.477091",
            "longitude": "73.890686"
        },
        {
            "id": "107",
            "place_name": "Kondhwa Gate",
            "latitude": "18.477091",
            "longitude": "73.890686"
        },
        {
            "id": "108",
            "place_name": "Krushnanagar Mohammadwadi",
            "latitude": "18.4763",
            "longitude": "73.9198"
        },
        {
            "id": "109",
            "place_name": "Swargate (Vai NIBM)",
            "latitude": "18.5018",
            "longitude": "73.862686"
        },
        {
            "id": "110",
            "place_name": "Swargate",
            "latitude": "18.501059",
            "longitude": "73.862686"
        },
        {
            "id": "111",
            "place_name": "Krushnanagar Mohammadwadi (Vai NIBM)",
            "latitude": "18.4763",
            "longitude": "73.9198"
        },
        {
            "id": "112",
            "place_name": "Mahammad Wadi",
            "latitude": "18.4763",
            "longitude": "73.9198"
        },
        {
            "id": "113",
            "place_name": "Azadnagar",
            "latitude": "18.4859",
            "longitude": "73.9059"
        },
        {
            "id": "114",
            "place_name": "Siddharthnagar",
            "latitude": "18.5146",
            "longitude": "73.7735"
        },
        {
            "id": "115",
            "place_name": "Salunke Vihar",
            "latitude": "18.4800",
            "longitude": "73.9044"
        },
        {
            "id": "116",
            "place_name": "Vadachiwadi",
            "latitude": "18.4386",
            "longitude": "73.9169"
        },
        {
            "id": "117",
            "place_name": "swargate",
            "latitude": "18.49968545",
            "longitude": "73.85688275180982"
        },
        {
            "id": "118",
            "place_name": "Narhegaon",
            "latitude": "18.4465",
            "longitude": "73.8264"
        },
        {
            "id": "119",
            "place_name": "Natraj Stand",
            "latitude": "18.5005",
            "longitude": "73.8579"
        },
        {
            "id": "120",
            "place_name": "Na Ta Wadi",
            "latitude": "18.5348",
            "longitude": "73.8489"
        },
        {
            "id": "121",
            "place_name": "SRP Camp",
            "latitude": "18.5246",
            "longitude": "73.9010"
        },
        {
            "id": "122",
            "place_name": "Kondhwa Kh",
            "latitude": "18.4779905",
            "longitude": "73.8940627"
        },
        {
            "id": "123",
            "place_name": "Theur Factory",
            "latitude": "18.5253",
            "longitude": "74.0440"
        },
        {
            "id": "124",
            "place_name": "Sarasbaug",
            "latitude": "18.500494850000003",
            "longitude": "73.85290370572457"
        },
        {
            "id": "125",
            "place_name": "Theur",
            "latitude": "18.52432",
            "longitude": "74.04648"
        },
        {
            "id": "126",
            "place_name": "Fursungi",
            "latitude": "18.4726271",
            "longitude": "73.9791077"
        },
        {
            "id": "127",
            "place_name": "Padmawati",
            "latitude": "27.6148181",
            "longitude": "75.1443822"
        },
        {
            "id": "128",
            "place_name": "Manjari Kh",
            "latitude": "20.7650024",
            "longitude": "77.82410744295947"
        },
        {
            "id": "129",
            "place_name": "Jspm College",
            "latitude": "18.618115",
            "longitude": "73.74948593736865"
        },
        {
            "id": "130",
            "place_name": "JSPM college",
            "latitude": "18.618115",
            "longitude": "73.74948593736865"
        },
        {
            "id": "131",
            "place_name": "Devachi Uruli",
            "latitude": "18.4531886853356",
            "longitude": "73.9565205802312"
        },
        {
            "id": "132",
            "place_name": "Bhansali Complex",
            "latitude": "18.466921",
            "longitude": "73.826561"
        },
        {
            "id": "133",
            "place_name": "Vadkigaon",
            "latitude": "18.4660",
            "longitude": "73.8246"
        },
        {
            "id": "134",
            "place_name": "Trinity College",
            "latitude": "52.20689025",
            "longitude": "0.11511292588941303"
        },
        {
            "id": "135",
            "place_name": "Mohammadwadigaon",
            "latitude": "18.4974",
            "longitude": "73.8510"
        },
        {
            "id": "136",
            "place_name": "Undrigaon",
            "latitude": "18.4508",
            "longitude": "73.9160"
        },
        {
            "id": "137",
            "place_name": "Uruli Kanchan",
            "latitude": "18.4872401",
            "longitude": "74.133"
        },
        {
            "id": "138",
            "place_name": "Holkarwadi",
            "latitude": "18.4389434",
            "longitude": "73.9399714"
        },
        {
            "id": "139",
            "place_name": "Swargate (Vai Ram Takedi)",
            "latitude": "18.49968545",
            "longitude": "73.85688275180982"
        },
        {
            "id": "140",
            "place_name": "Mahammad Wadi  (Vai Ram Takedi)",
            "latitude": "18.4974",
            "longitude": "73.8510"
        },
        {
            "id": "141",
            "place_name": "Manjari Bk",
            "latitude": "20.7650024",
            "longitude": "77.82410744295947"
        },
        {
            "id": "142",
            "place_name": "Sadesatranali",
            "latitude": "18.5127",
            "longitude": "73.9499"
        },
        {
            "id": "143",
            "place_name": "Mahatma Gandhi Stand",
            "latitude": "18.5051",
            "longitude": "73.8784"
        },
        {
            "id": "144",
            "place_name": "Ganpati Matha",
            "latitude": "18.4757",
            "longitude": "73.7957"
        },
        {
            "id": "145",
            "place_name": "Vishalnagar",
            "latitude": "18.5844",
            "longitude": "73.7809"
        },
        {
            "id": "146",
            "place_name": "Saswad",
            "latitude": "18.3444347",
            "longitude": "74.0295234"
        },
        {
            "id": "147",
            "place_name": "Sahkarnagar",
            "latitude": "18.4835",
            "longitude": "73.8439"
        },
        {
            "id": "148",
            "place_name": "Swargate Depo",
            "latitude": "18.5004",
            "longitude": "73.8615"
        },
        {
            "id": "149",
            "place_name": "Chintamani Dnyanpith",
            "latitude": "18.4557",
            "longitude": "73.8392"
        },
        {
            "id": "150",
            "place_name": "Bharati Vidyapeeth",
            "latitude": "18.51361895",
            "longitude": "73.8199373404953"
        },
        {
            "id": "151",
            "place_name": "Gujarwadi",
            "latitude": "18.445089",
            "longitude": "73.868980"
        },
        {
            "id": "152",
            "place_name": "Jambhulwadi",
            "latitude": "18.4268",
            "longitude": "73.83977."
        },
        {
            "id": "153",
            "place_name": "Ammunition Factory",
            "latitude": "18.5641",
            "longitude": "73.8602"
        },
        {
            "id": "154",
            "place_name": "HEMRL Company",
            "latitude": "18.5415",
            "longitude": "73.7925"
        },
        {
            "id": "155",
            "place_name": "Marnewadi",
            "latitude": "18.473451",
            "longitude": "73.6454676"
        },
        {
            "id": "156",
            "place_name": "Paudgaon",
            "latitude": "18.52368",
            "longitude": "73.616638"
        },
        {
            "id": "157",
            "place_name": "Khulewadi",
            "latitude": "18.5699",
            "longitude": "73.9319"
        },
        {
            "id": "158",
            "place_name": "Maharashtra Housing Board Samtanagar",
            "latitude": "18.5618",
            "longitude": "73.8967"
        },
        {
            "id": "159",
            "place_name": "Charholigaon",
            "latitude": "18.6856",
            "longitude": "73.9441"
        },
        {
            "id": "160",
            "place_name": "Banergaon",
            "latitude": "18.559658",
            "longitude": "73.779938"
        },
        {
            "id": "161",
            "place_name": "Someshwarwadi",
            "latitude": "18.5493811",
            "longitude": "73.7982923"
        },
        {
            "id": "162",
            "place_name": "Dehugaon",
            "latitude": "18.7167",
            "longitude": "73.7678"
        },
        {
            "id": "163",
            "place_name": "Nigdi",
            "latitude": "18.0374784",
            "longitude": "73.0698806"
        },
        {
            "id": "164",
            "place_name": "Bahulgaon",
            "latitude": "18.7220",
            "longitude": "73.9994"
        },
        {
            "id": "165",
            "place_name": "Dhankawadi",
            "latitude": "18.4652208",
            "longitude": "73.8495579"
        },
        {
            "id": "166",
            "place_name": "Kondhwagate",
            "latitude": "18.4544",
            "longitude": "73.7667"
        },
        {
            "id": "167",
            "place_name": "Kothrud Depo",
            "latitude": "18.515462",
            "longitude": "73.8154601"
        },
        {
            "id": "168",
            "place_name": "Khamboli",
            "latitude": "18.58732",
            "longitude": "73.6143626"
        },
        {
            "id": "169",
            "place_name": "Warje Hanuman Chowk",
            "latitude": "18.4756",
            "longitude": "73.8055"
        },
        {
            "id": "170",
            "place_name": "Bhosarigaon",
            "latitude": "18.6204",
            "longitude": "73.8482"
        },
        {
            "id": "171",
            "place_name": "Shaninagar",
            "latitude": "18.4414",
            "longitude": "73.8493"
        },
        {
            "id": "172",
            "place_name": "Kalyangaon",
            "latitude": "18.516726",
            "longitude": "73.856255"
        },
        {
            "id": "173",
            "place_name": "Rahatwadegaon",
            "latitude": "18.3411",
            "longitude": "73.7942"
        },
        {
            "id": "174",
            "place_name": "Avsarwadi",
            "latitude": "18.9749",
            "longitude": "73.9683"
        },
        {
            "id": "175",
            "place_name": "Kondhanpur",
            "latitude": "18.3480",
            "longitude": "73.7941"
        },
        {
            "id": "176",
            "place_name": "Kusgaon",
            "latitude": "18.3285194",
            "longitude": "73.8168665"
        },
        {
            "id": "177",
            "place_name": "Khed Shivapur",
            "latitude": "18.3391133",
            "longitude": "73.8392736"
        },
        {
            "id": "178",
            "place_name": "Khadakwasla Dharan",
            "latitude": "18.4423",
            "longitude": "73.7671"
        },
        {
            "id": "179",
            "place_name": "Ambegaon",
            "latitude": "19.03169355",
            "longitude": "73.95003011520785"
        },
        {
            "id": "180",
            "place_name": "Rajas Society",
            "latitude": "18.4539472",
            "longitude": "73.86542468766065"
        },
        {
            "id": "181",
            "place_name": "Katraj Ladies Special",
            "latitude": "18.4529",
            "longitude": "73.8652"
        },
        {
            "id": "182",
            "place_name": "Shivajinagar Ladies Special",
            "latitude": "18.5314",
            "longitude": "73.8446"
        },
        {
            "id": "183",
            "place_name": "Bhilarewadi",
            "latitude": "18.4221",
            "longitude": "73.8595"
        },
        {
            "id": "184",
            "place_name": "Sachchai Mata Mandir",
            "latitude": "18.4434",
            "longitude": "73.8530"
        },
        {
            "id": "185",
            "place_name": "Taljai Pathar",
            "latitude": "18.4699",
            "longitude": "73.8504"
        },
        {
            "id": "186",
            "place_name": "Katraj Night Service",
            "latitude": "18.4529",
            "longitude": "73.8652"
        },
        {
            "id": "187",
            "place_name": "Shivajinagar Night Service",
            "latitude": "18.5314",
            "longitude": "73.8446"
        },
        {
            "id": "188",
            "place_name": "Pimprigaon",
            "latitude": "18.6069",
            "longitude": "73.7993"
        },
        {
            "id": "189",
            "place_name": "Gavhanevasti Bhosari",
            "latitude": "18.6069",
            "longitude": "73.7993"
        },
        {
            "id": "190",
            "place_name": "Mukai Chowk",
            "latitude": "18.665008",
            "longitude": "73.7087593"
        },
        {
            "id": "191",
            "place_name": "Akurdi Railway Station",
            "latitude": "18.6490357",
            "longitude": "73.7652694"
        },
        {
            "id": "192",
            "place_name": "Dy Patil College Wadgaonmawal",
            "latitude": "18.6231",
            "longitude": "73.8160"
        },
        {
            "id": "193",
            "place_name": "Navlakh Umbre",
            "latitude": "18.7350432",
            "longitude": "73.6525477"
        },
        {
            "id": "194",
            "place_name": "Vadgaon Mawal",
            "latitude": "18.7438014",
            "longitude": "73.6307937"
        },
        {
            "id": "195",
            "place_name": "Dange Chowk",
            "latitude": "18.6156694",
            "longitude": "73.765352"
        },
        {
            "id": "196",
            "place_name": "Walhekarwadi",
            "latitude": "18.6314337",
            "longitude": "73.7731185"
        },
        {
            "id": "197",
            "place_name": "Gharkul Vasahat Chikhli",
            "latitude": "18.6673",
            "longitude": "73.8071"
        },
        {
            "id": "198",
            "place_name": "Rautwadi",
            "latitude": "19.8545203",
            "longitude": "77.8282642"
        },
        {
            "id": "199",
            "place_name": "Kasarsai Karkhana",
            "latitude": "18.6390",
            "longitude": "73.6802"
        },
        {
            "id": "200",
            "place_name": "Chandkhed",
            "latitude": "20.8939477",
            "longitude": "77.18718603928934"
        },
        {
            "id": "201",
            "place_name": "Mhalunge MIDC",
            "latitude": "18.7481403718558 ",
            "longitude": "73.8034228044053"
        },
        {
            "id": "202",
            "place_name": "Moshigaon",
            "latitude": "18.6775",
            "longitude": "73.8512"
        },
        {
            "id": "203",
            "place_name": "Pune Station (Vai Alandi Road)",
            "latitude": "18.5285",
            "longitude": "73.8744"
        },
        {
            "id": "204",
            "place_name": "Bhosari (Vai Alandi Road)",
            "latitude": "18.6321",
            "longitude": "73.8468"
        },
        {
            "id": "205",
            "place_name": "Dapodi",
            "latitude": "18.5807367",
            "longitude": "73.8328105"
        },
        {
            "id": "206",
            "place_name": "Sambhajinagar",
            "latitude": "19.877263",
            "longitude": "75.3390241"
        },
        {
            "id": "207",
            "place_name": "Gharkul Vasahat Chikali",
            "latitude": "18.6822",
            "longitude": "73.9001"
        },
        {
            "id": "208",
            "place_name": "Krishanagar",
            "latitude": "18.5204",
            "longitude": "73.8567"
        },
        {
            "id": "209",
            "place_name": "Krushnanagar",
            "latitude": "18.798347",
            "longitude": "76.4908075"
        },
        {
            "id": "210",
            "place_name": "Mahalungegaon",
            "latitude": "18.5746",
            "longitude": "73.7554"
        },
        {
            "id": "211",
            "place_name": "Pimpale Gurav",
            "latitude": "18.5874457",
            "longitude": "73.8213076"
        },
        {
            "id": "212",
            "place_name": "Pimple Gurav",
            "latitude": "18.5874457",
            "longitude": "73.8213076"
        },
        {
            "id": "213",
            "place_name": "Vasasantdada Putla Sangvi",
            "latitude": "18.1705",
            "longitude": "73.6625"
        },
        {
            "id": "214",
            "place_name": "Chikhali",
            "latitude": "21.2598512",
            "longitude": "77.55017644367626"
        },
        {
            "id": "215",
            "place_name": "Gharkul Vasahat Chikhali",
            "latitude": "18.6822",
            "longitude": "73.9001"
        },
        {
            "id": "216",
            "place_name": "Masulkar Colony",
            "latitude": "18.6340684",
            "longitude": "73.8128775"
        },
        {
            "id": "217",
            "place_name": "Rupeenagar",
            "latitude": "18.6747",
            "longitude": "73.7829"
        },
        {
            "id": "218",
            "place_name": "Pune Station (Via Yarwada)",
            "latitude": "18.5285",
            "longitude": "73.8744"
        },
        {
            "id": "219",
            "place_name": "Dehugaon (Via Yarwada)",
            "latitude": "18.7167",
            "longitude": "73.7678"
        },
        {
            "id": "220",
            "place_name": "Pune Station (Via Wakdevadi)",
            "latitude": "18.5285",
            "longitude": "73.8744"
        },
        {
            "id": "221",
            "place_name": "Dehugaon (Via Wakdevadi)",
            "latitude": "18.7167",
            "longitude": "73.7678"
        },
        {
            "id": "222",
            "place_name": "Rahatnigaon",
            "latitude": "18.6041",
            "longitude": "73.7956"
        },
        {
            "id": "223",
            "place_name": "Pimple Saudagar",
            "latitude": "18.5981553",
            "longitude": "73.7977661"
        },
        {
            "id": "224",
            "place_name": "Jambe",
            "latitude": "-6.321687649999999",
            "longitude": "106.49777176686048"
        },
        {
            "id": "225",
            "place_name": "Indrayaninagar",
            "latitude": "18.6358",
            "longitude": "73.8412"
        },
        {
            "id": "226",
            "place_name": "Santnagar MIDC Police Station",
            "latitude": "18.5986",
            "longitude": "73.9345"
        },
        {
            "id": "227",
            "place_name": "Mohannagar",
            "latitude": "18.4597",
            "longitude": "73.8496"
        },
        {
            "id": "228",
            "place_name": "Pimple Nilakh",
            "latitude": "18.5696793",
            "longitude": "73.7940824"
        },
        {
            "id": "229",
            "place_name": "Thergaon",
            "latitude": "18.3679666",
            "longitude": "76.7896593"
        },
        {
            "id": "230",
            "place_name": "Rajgurunagar",
            "latitude": "18.8555378",
            "longitude": "73.8863954"
        },
        {
            "id": "231",
            "place_name": "YCM Hospital (Via Moshi)",
            "latitude": "18.6213501",
            "longitude": "73.8200705"
        },
        {
            "id": "232",
            "place_name": "YCM Hospital",
            "latitude": "18.6213501",
            "longitude": "73.8200705"
        },
        {
            "id": "233",
            "place_name": "Alandi (Via Moshi)",
            "latitude": "18.6783",
            "longitude": "73.8950"
        },
        {
            "id": "234",
            "place_name": "Kiwalegaon",
            "latitude": "18.6576",
            "longitude": "73.7222"
        },
        {
            "id": "235",
            "place_name": "Adarshnagar",
            "latitude": "26.4109424",
            "longitude": "74.6535336"
        },
        {
            "id": "236",
            "place_name": "Bhapkar Petrol Pump",
            "latitude": "18.516726",
            "longitude": "73.856255"
        },
        {
            "id": "237",
            "place_name": "Pune Station (Via Yerwada)",
            "latitude": "18.5285",
            "longitude": "73.8744"
        },
        {
            "id": "238",
            "place_name": "Bhakti Shakti (Via Yerwada)",
            "latitude": "18.516726",
            "longitude": "73.856255"
        },
        {
            "id": "239",
            "place_name": "Gharkul Vasahat",
            "latitude": "18.6822",
            "longitude": "73.9001"
        },
        {
            "id": "240",
            "place_name": "Wakad pul",
            "latitude": "18.586708173235344",
            "longitude": "73.75919421031604"
        },
        {
            "id": "241",
            "place_name": "Wakad Pul",
            "latitude": "18.586708173235344",
            "longitude": "73.75919421031604"
        },
        {
            "id": "242",
            "place_name": "Warje Malwadi (Vai YCM)",
            "latitude": "18.4755",
            "longitude": "73.8034"
        },
        {
            "id": "243",
            "place_name": "Bhakti Shakti (Vai YCM)",
            "latitude": "18.516726",
            "longitude": "73.856255"
        },
        {
            "id": "244",
            "place_name": "Shewalwadi (Vai YCM)",
            "latitude": "18.4500",
            "longitude": "73.9411"
        },
        {
            "id": "245",
            "place_name": "Katraj (Vai YCM)",
            "latitude": "18.4529",
            "longitude": "73.8652"
        },
        {
            "id": "246",
            "place_name": "Nehrunagar Depo (Vai YCM)",
            "latitude": "18.6327",
            "longitude": "73.8221"
        },
        {
            "id": "247",
            "place_name": "Sambhajinagar (Vai YCM)",
            "latitude": "18.5204",
            "longitude": "73.8567"
        },
        {
            "id": "248",
            "place_name": "Saket Society",
            "latitude": "18.5613971",
            "longitude": "73.8005169"
        },
        {
            "id": "249",
            "place_name": "Sangvi",
            "latitude": "22.642389700000003",
            "longitude": "75.53592685623741"
        },
        {
            "id": "250",
            "place_name": "Sanaswadi Nandoshi",
            "latitude": "18.4145",
            "longitude": "73.8032"
        },
        {
            "id": "251",
            "place_name": "Khanapur",
            "latitude": "15.639879",
            "longitude": "74.5088917"
        },
        {
            "id": "252",
            "place_name": "Sinhgad Paytha",
            "latitude": "18.3651861",
            "longitude": "73.7549869"
        },
        {
            "id": "253",
            "place_name": "Sinhagad",
            "latitude": "18.3651861",
            "longitude": "73.7549869"
        },
        {
            "id": "254",
            "place_name": "Dhayari Maruti Mandi",
            "latitude": "18.441833",
            "longitude": "73.812157"
        },
        {
            "id": "255",
            "place_name": "Osade Phata",
            "latitude": "18.3895",
            "longitude": "73.6888"
        },
        {
            "id": "256",
            "place_name": "Pandavnagar",
            "latitude": "18.544023",
            "longitude": "73.7826234"
        },
        {
            "id": "257",
            "place_name": "Shanipar",
            "latitude": "18.5133364",
            "longitude": "73.8538452"
        },
        {
            "id": "258",
            "place_name": "Pandavnagar Senapati Bapat Road",
            "latitude": "18.5204",
            "longitude": "73.8567"
        },
        {
            "id": "259",
            "place_name": "Niljyoti",
            "latitude": "18.5327",
            "longitude": "73.8212"
        },
        {
            "id": "260",
            "place_name": "Tadiwala Road",
            "latitude": "18.5304128",
            "longitude": "73.8748719"
        },
        {
            "id": "261",
            "place_name": "Ghulenagar",
            "latitude": "18.4633",
            "longitude": "73.8279"
        },
        {
            "id": "262",
            "place_name": "Ghulenager",
            "latitude": "18.4633",
            "longitude": "73.8279"
        },
        {
            "id": "263",
            "place_name": "Nasrapur",
            "latitude": "18.2488013",
            "longitude": "73.8881807"
        },
        {
            "id": "264",
            "place_name": "Sangamwadi",
            "latitude": "18.8490509",
            "longitude": "77.1582377"
        },
        {
            "id": "265",
            "place_name": "Sukhsagarnagar",
            "latitude": "18.4565",
            "longitude": "73.8701"
        },
        {
            "id": "266",
            "place_name": "Kalyaninagar",
            "latitude": "18.5462",
            "longitude": "73.9040"
        },
        {
            "id": "267",
            "place_name": "Agalambegaon",
            "latitude": "18.4341",
            "longitude": "73.7080"
        },
        {
            "id": "268",
            "place_name": "Ghotawadegaon",
            "latitude": "18.5489",
            "longitude": "73.6625"
        },
        {
            "id": "269",
            "place_name": "Shasakiya Vishramgruha Paudgaon",
            "latitude": "18.498473",
            "longitude": "73.73581"
        },
        {
            "id": "270",
            "place_name": "Sheregaon",
            "latitude": "18.6804",
            "longitude": "73.6883"
        },
        {
            "id": "271",
            "place_name": "Mugawade",
            "latitude": "18.5429",
            "longitude": "73.6286"
        },
        {
            "id": "272",
            "place_name": "Aditya Garden City",
            "latitude": "18.489525",
            "longitude": "73.7890146"
        },
        {
            "id": "273",
            "place_name": "Popularnagar",
            "latitude": "18.4836",
            "longitude": "73.7971"
        },
        {
            "id": "274",
            "place_name": "Cipla Center",
            "latitude": "18.4855",
            "longitude": "73.7989"
        },
        {
            "id": "275",
            "place_name": "Kondhur Phata",
            "latitude": "18.4382",
            "longitude": "73.6381"
        },
        {
            "id": "276",
            "place_name": "Sangrun",
            "latitude": "18.3996063",
            "longitude": "73.6768122"
        },
        {
            "id": "277",
            "place_name": "Khothrud Stand",
            "latitude": "18.4999",
            "longitude": "73.8135"
        },
        {
            "id": "278",
            "place_name": "Mohakarwadi",
            "latitude": "18.4447",
            "longitude": "73.8281"
        },
        {
            "id": "279",
            "place_name": "Sutarwadi",
            "latitude": "18.5151266",
            "longitude": "73.6558357"
        },
        {
            "id": "280",
            "place_name": "Deccan Gymkhana (Vai Bhagvatinagar)",
            "latitude": "18.5165",
            "longitude": "73.8366"
        },
        {
            "id": "281",
            "place_name": "Sutarwadi (Vai Bhagvatinagar)",
            "latitude": "18.5420",
            "longitude": "73.7816"
        },
        {
            "id": "282",
            "place_name": "Susgaon",
            "latitude": "18.5506723593694 ",
            "longitude": "73.7517123313438 "
        },
        {
            "id": "283",
            "place_name": "HMR Company",
            "latitude": "18.5204",
            "longitude": "73.8567"
        },
        {
            "id": "284",
            "place_name": "Deccan Gymkhana (Vai Sai Chowk)",
            "latitude": "18.5165",
            "longitude": "73.8366"
        },
        {
            "id": "285",
            "place_name": "Sutarwadi (Vai Sai Chowk)",
            "latitude": "18.5420",
            "longitude": "73.7816"
        },
        {
            "id": "286",
            "place_name": "Balewadi Mhalunge Phata",
            "latitude": "18.5686",
            "longitude": "73.7672"
        },
        {
            "id": "287",
            "place_name": "Medi Point",
            "latitude": "50.1555491",
            "longitude": "8.98263255"
        },
        {
            "id": "288",
            "place_name": "Mhatobachi Alandi",
            "latitude": "18.4389",
            "longitude": "74.0711"
        },
        {
            "id": "289",
            "place_name": "Ishanyanagari",
            "latitude": "18.4646",
            "longitude": "73.8603"
        },
        {
            "id": "290",
            "place_name": "Kumbre park",
            "latitude": "18.5046048",
            "longitude": "73.7980811539952"
        },
        {
            "id": "291",
            "place_name": "Gharkul Vasahat Warje",
            "latitude": "18.6800",
            "longitude": "73.9001"
        },
        {
            "id": "292",
            "place_name": "Uruli Railway Station",
            "latitude": "18.4937197",
            "longitude": "74.1369658"
        },
        {
            "id": "293",
            "place_name": "Police Ground",
            "latitude": "12.6519945",
            "longitude": "77.20416191106239"
        },
        {
            "id": "294",
            "place_name": "MIT College",
            "latitude": "19.85058605",
            "longitude": "75.32320521721728"
        },
        {
            "id": "295",
            "place_name": "Sainagar Mamurdi",
            "latitude": "18.6800",
            "longitude": "73.7140"
        },
        {
            "id": "296",
            "place_name": "Dhayari Gaon",
            "latitude": "18.4544102",
            "longitude": "73.7909042"
        },
        {
            "id": "297",
            "place_name": "D.Y. Patil Vidhypith Lohgaon",
            "latitude": "18.62092",
            "longitude": "73.910095"
        }
    ],
    "connections": [
        {
            "source": "1",
            "destination": "2",
            "weight": "26.4"
        },
        {
            "source": "2",
            "destination": "1",
            "weight": "26.4"
        },
        {
            "source": "3",
            "destination": "4",
            "weight": "16.2"
        },
        {
            "source": "4",
            "destination": "3",
            "weight": "16.2"
        },
        {
            "source": "5",
            "destination": "4",
            "weight": "23.6"
        },
        {
            "source": "4",
            "destination": "5",
            "weight": "23.6"
        },
        {
            "source": "1",
            "destination": "6",
            "weight": "36.6"
        },
        {
            "source": "7",
            "destination": "8",
            "weight": "36.6"
        },
        {
            "source": "9",
            "destination": "7",
            "weight": "6.1"
        },
        {
            "source": "7",
            "destination": "9",
            "weight": "6.1"
        },
        {
            "source": "1",
            "destination": "9",
            "weight": "30.5"
        },
        {
            "source": "9",
            "destination": "1",
            "weight": "30.5"
        },
        {
            "source": "4",
            "destination": "7",
            "weight": "14.3"
        },
        {
            "source": "7",
            "destination": "4",
            "weight": "14.3"
        },
        {
            "source": "10",
            "destination": "11",
            "weight": "15.4"
        },
        {
            "source": "11",
            "destination": "10",
            "weight": "15.4"
        },
        {
            "source": "12",
            "destination": "11",
            "weight": "16.8"
        },
        {
            "source": "11",
            "destination": "12",
            "weight": "16.8"
        },
        {
            "source": "13",
            "destination": "13",
            "weight": "21.3"
        },
        {
            "source": "14",
            "destination": "11",
            "weight": "14.4"
        },
        {
            "source": "11",
            "destination": "14",
            "weight": "14.4"
        },
        {
            "source": "15",
            "destination": "16",
            "weight": "12.3"
        },
        {
            "source": "16",
            "destination": "15",
            "weight": "12.3"
        },
        {
            "source": "2",
            "destination": "2",
            "weight": "21"
        },
        {
            "source": "17",
            "destination": "9",
            "weight": "15"
        },
        {
            "source": "9",
            "destination": "17",
            "weight": "15"
        },
        {
            "source": "2",
            "destination": "2",
            "weight": "21"
        },
        {
            "source": "2",
            "destination": "18",
            "weight": "17.3"
        },
        {
            "source": "18",
            "destination": "2",
            "weight": "17.3"
        },
        {
            "source": "19",
            "destination": "4",
            "weight": "8"
        },
        {
            "source": "4",
            "destination": "19",
            "weight": "8"
        },
        {
            "source": "14",
            "destination": "20",
            "weight": "13.3"
        },
        {
            "source": "20",
            "destination": "14",
            "weight": "13.3"
        },
        {
            "source": "14",
            "destination": "2",
            "weight": "12.6"
        },
        {
            "source": "2",
            "destination": "14",
            "weight": "12.6"
        },
        {
            "source": "21",
            "destination": "20",
            "weight": "10.9"
        },
        {
            "source": "20",
            "destination": "21",
            "weight": "10.9"
        },
        {
            "source": "22",
            "destination": "2",
            "weight": "12.5"
        },
        {
            "source": "2",
            "destination": "22",
            "weight": "12.5"
        },
        {
            "source": "1",
            "destination": "15",
            "weight": "29"
        },
        {
            "source": "15",
            "destination": "1",
            "weight": "29"
        },
        {
            "source": "23",
            "destination": "2",
            "weight": "10.8"
        },
        {
            "source": "2",
            "destination": "23",
            "weight": "10.8"
        },
        {
            "source": "10",
            "destination": "9",
            "weight": "12.6"
        },
        {
            "source": "9",
            "destination": "10",
            "weight": "12.6"
        },
        {
            "source": "24",
            "destination": "9",
            "weight": "11.7"
        },
        {
            "source": "9",
            "destination": "24",
            "weight": "11.7"
        },
        {
            "source": "25",
            "destination": "9",
            "weight": "13.5"
        },
        {
            "source": "9",
            "destination": "25",
            "weight": "13.5"
        },
        {
            "source": "26",
            "destination": "9",
            "weight": "12.2"
        },
        {
            "source": "9",
            "destination": "26",
            "weight": "12.2"
        },
        {
            "source": "9",
            "destination": "27",
            "weight": "5"
        },
        {
            "source": "28",
            "destination": "27",
            "weight": "7"
        },
        {
            "source": "29",
            "destination": "26",
            "weight": "13.6"
        },
        {
            "source": "9",
            "destination": "30",
            "weight": "3.1"
        },
        {
            "source": "30",
            "destination": "9",
            "weight": "3.1"
        },
        {
            "source": "31",
            "destination": "9",
            "weight": "9.4"
        },
        {
            "source": "9",
            "destination": "31",
            "weight": "9.4"
        },
        {
            "source": "32",
            "destination": "9",
            "weight": "6"
        },
        {
            "source": "9",
            "destination": "32",
            "weight": "6"
        },
        {
            "source": "33",
            "destination": "9",
            "weight": "7"
        },
        {
            "source": "9",
            "destination": "33",
            "weight": "7"
        },
        {
            "source": "34",
            "destination": "9",
            "weight": "11.2"
        },
        {
            "source": "9",
            "destination": "34",
            "weight": "11.2"
        },
        {
            "source": "31",
            "destination": "9",
            "weight": "9.4"
        },
        {
            "source": "9",
            "destination": "31",
            "weight": "9.4"
        },
        {
            "source": "35",
            "destination": "36",
            "weight": "11"
        },
        {
            "source": "36",
            "destination": "35",
            "weight": "11"
        },
        {
            "source": "35",
            "destination": "2",
            "weight": "23.1"
        },
        {
            "source": "2",
            "destination": "35",
            "weight": "23.1"
        },
        {
            "source": "14",
            "destination": "30",
            "weight": "18.3"
        },
        {
            "source": "30",
            "destination": "14",
            "weight": "18.3"
        },
        {
            "source": "37",
            "destination": "7",
            "weight": "21.6"
        },
        {
            "source": "7",
            "destination": "37",
            "weight": "21.6"
        },
        {
            "source": "38",
            "destination": "39",
            "weight": "23.5"
        },
        {
            "source": "39",
            "destination": "38",
            "weight": "23.5"
        },
        {
            "source": "40",
            "destination": "2",
            "weight": "40.6"
        },
        {
            "source": "2",
            "destination": "40",
            "weight": "40.6"
        },
        {
            "source": "41",
            "destination": "2",
            "weight": "17.1"
        },
        {
            "source": "2",
            "destination": "41",
            "weight": "17.1"
        },
        {
            "source": "42",
            "destination": "2",
            "weight": "15.9"
        },
        {
            "source": "43",
            "destination": "42",
            "weight": "6"
        },
        {
            "source": "42",
            "destination": "43",
            "weight": "6"
        },
        {
            "source": "2",
            "destination": "43",
            "weight": "18.7"
        },
        {
            "source": "43",
            "destination": "2",
            "weight": "18.7"
        },
        {
            "source": "2",
            "destination": "43",
            "weight": "18.7"
        },
        {
            "source": "44",
            "destination": "2",
            "weight": "20.1"
        },
        {
            "source": "2",
            "destination": "44",
            "weight": "20.1"
        },
        {
            "source": "45",
            "destination": "46",
            "weight": "12.7"
        },
        {
            "source": "46",
            "destination": "45",
            "weight": "12.7"
        },
        {
            "source": "47",
            "destination": "23",
            "weight": "10.1"
        },
        {
            "source": "47",
            "destination": "48",
            "weight": "20.2"
        },
        {
            "source": "23",
            "destination": "48",
            "weight": "10.2"
        },
        {
            "source": "48",
            "destination": "36",
            "weight": "16.2"
        },
        {
            "source": "23",
            "destination": "36",
            "weight": "6"
        },
        {
            "source": "36",
            "destination": "48",
            "weight": "16.2"
        },
        {
            "source": "46",
            "destination": "2",
            "weight": "19.1"
        },
        {
            "source": "2",
            "destination": "46",
            "weight": "19.1"
        },
        {
            "source": "12",
            "destination": "15",
            "weight": "18.8"
        },
        {
            "source": "15",
            "destination": "12",
            "weight": "18.8"
        },
        {
            "source": "44",
            "destination": "49",
            "weight": "30.05"
        },
        {
            "source": "49",
            "destination": "44",
            "weight": "30.05"
        },
        {
            "source": "50",
            "destination": "7",
            "weight": "5.7"
        },
        {
            "source": "7",
            "destination": "50",
            "weight": "5.7"
        },
        {
            "source": "51",
            "destination": "50",
            "weight": "16.1"
        },
        {
            "source": "50",
            "destination": "51",
            "weight": "16.1"
        },
        {
            "source": "52",
            "destination": "53",
            "weight": "14"
        },
        {
            "source": "2",
            "destination": "54",
            "weight": "14"
        },
        {
            "source": "55",
            "destination": "2",
            "weight": "11.1"
        },
        {
            "source": "2",
            "destination": "55",
            "weight": "11.1"
        },
        {
            "source": "56",
            "destination": "57",
            "weight": "14.8"
        },
        {
            "source": "2",
            "destination": "58",
            "weight": "14.8"
        },
        {
            "source": "59",
            "destination": "2",
            "weight": "12.8"
        },
        {
            "source": "2",
            "destination": "59",
            "weight": "12.8"
        },
        {
            "source": "60",
            "destination": "2",
            "weight": "14"
        },
        {
            "source": "2",
            "destination": "61",
            "weight": "14"
        },
        {
            "source": "62",
            "destination": "15",
            "weight": "8.7"
        },
        {
            "source": "15",
            "destination": "62",
            "weight": "8.7"
        },
        {
            "source": "63",
            "destination": "64",
            "weight": "10.8"
        },
        {
            "source": "64",
            "destination": "63",
            "weight": "10.8"
        },
        {
            "source": "63",
            "destination": "15",
            "weight": "25.6"
        },
        {
            "source": "15",
            "destination": "63",
            "weight": "25.6"
        },
        {
            "source": "65",
            "destination": "64",
            "weight": "12.7"
        },
        {
            "source": "64",
            "destination": "65",
            "weight": "12.7"
        },
        {
            "source": "65",
            "destination": "15",
            "weight": "27.5"
        },
        {
            "source": "15",
            "destination": "65",
            "weight": "27.5"
        },
        {
            "source": "44",
            "destination": "18",
            "weight": "30.7"
        },
        {
            "source": "18",
            "destination": "44",
            "weight": "30.7"
        },
        {
            "source": "44",
            "destination": "66",
            "weight": "31.6"
        },
        {
            "source": "66",
            "destination": "44",
            "weight": "31.6"
        },
        {
            "source": "51",
            "destination": "67",
            "weight": "11.9"
        },
        {
            "source": "68",
            "destination": "51",
            "weight": "11.9"
        },
        {
            "source": "69",
            "destination": "70",
            "weight": "14.5"
        },
        {
            "source": "70",
            "destination": "69",
            "weight": "14.5"
        },
        {
            "source": "70",
            "destination": "69",
            "weight": "14.5"
        },
        {
            "source": "51",
            "destination": "49",
            "weight": "10"
        },
        {
            "source": "51",
            "destination": "71",
            "weight": "9.6"
        },
        {
            "source": "71",
            "destination": "51",
            "weight": "9.6"
        },
        {
            "source": "49",
            "destination": "51",
            "weight": "10"
        },
        {
            "source": "15",
            "destination": "49",
            "weight": "11.3"
        },
        {
            "source": "49",
            "destination": "15",
            "weight": "11.3"
        },
        {
            "source": "30",
            "destination": "72",
            "weight": "6"
        },
        {
            "source": "72",
            "destination": "30",
            "weight": "6"
        },
        {
            "source": "15",
            "destination": "72",
            "weight": "11.9"
        },
        {
            "source": "72",
            "destination": "15",
            "weight": "11.9"
        },
        {
            "source": "73",
            "destination": "15",
            "weight": "31.8"
        },
        {
            "source": "15",
            "destination": "73",
            "weight": "31.8"
        },
        {
            "source": "15",
            "destination": "74",
            "weight": "11.3"
        },
        {
            "source": "13",
            "destination": "75",
            "weight": "11.3"
        },
        {
            "source": "15",
            "destination": "76",
            "weight": "11.3"
        },
        {
            "source": "13",
            "destination": "77",
            "weight": "11.3"
        },
        {
            "source": "15",
            "destination": "78",
            "weight": "13.9"
        },
        {
            "source": "78",
            "destination": "15",
            "weight": "13.9"
        },
        {
            "source": "60",
            "destination": "79",
            "weight": "22.7"
        },
        {
            "source": "79",
            "destination": "60",
            "weight": "22.7"
        },
        {
            "source": "15",
            "destination": "80",
            "weight": "9"
        },
        {
            "source": "15",
            "destination": "81",
            "weight": "12.5"
        },
        {
            "source": "81",
            "destination": "15",
            "weight": "12.5"
        },
        {
            "source": "15",
            "destination": "82",
            "weight": "9"
        },
        {
            "source": "82",
            "destination": "15",
            "weight": "9"
        },
        {
            "source": "80",
            "destination": "15",
            "weight": "9"
        },
        {
            "source": "83",
            "destination": "15",
            "weight": "25.75"
        },
        {
            "source": "15",
            "destination": "83",
            "weight": "25.75"
        },
        {
            "source": "84",
            "destination": "15",
            "weight": "13"
        },
        {
            "source": "15",
            "destination": "84",
            "weight": "13"
        },
        {
            "source": "85",
            "destination": "15",
            "weight": "23.15"
        },
        {
            "source": "15",
            "destination": "86",
            "weight": "23.15"
        },
        {
            "source": "87",
            "destination": "15",
            "weight": "8.45"
        },
        {
            "source": "15",
            "destination": "87",
            "weight": "8.45"
        },
        {
            "source": "88",
            "destination": "64",
            "weight": "23.2"
        },
        {
            "source": "64",
            "destination": "88",
            "weight": "23.2"
        },
        {
            "source": "88",
            "destination": "15",
            "weight": "38"
        },
        {
            "source": "15",
            "destination": "88",
            "weight": "38"
        },
        {
            "source": "39",
            "destination": "18",
            "weight": "33.7"
        },
        {
            "source": "18",
            "destination": "39",
            "weight": "33.7"
        },
        {
            "source": "14",
            "destination": "66",
            "weight": "24.8"
        },
        {
            "source": "66",
            "destination": "14",
            "weight": "24.8"
        },
        {
            "source": "44",
            "destination": "66",
            "weight": "42.9"
        },
        {
            "source": "66",
            "destination": "44",
            "weight": "42.9"
        },
        {
            "source": "89",
            "destination": "66",
            "weight": "37.6"
        },
        {
            "source": "66",
            "destination": "89",
            "weight": "37.6"
        },
        {
            "source": "64",
            "destination": "26",
            "weight": "31.6"
        },
        {
            "source": "26",
            "destination": "64",
            "weight": "31.6"
        },
        {
            "source": "35",
            "destination": "15",
            "weight": "22"
        },
        {
            "source": "15",
            "destination": "35",
            "weight": "22"
        },
        {
            "source": "90",
            "destination": "2",
            "weight": "12.3"
        },
        {
            "source": "2",
            "destination": "90",
            "weight": "12.3"
        },
        {
            "source": "2",
            "destination": "91",
            "weight": "11.6"
        },
        {
            "source": "36",
            "destination": "15",
            "weight": "8.5"
        },
        {
            "source": "15",
            "destination": "36",
            "weight": "8.5"
        },
        {
            "source": "5",
            "destination": "92",
            "weight": "15.7"
        },
        {
            "source": "15",
            "destination": "93",
            "weight": "15.7"
        },
        {
            "source": "94",
            "destination": "2",
            "weight": "15.5"
        },
        {
            "source": "2",
            "destination": "94",
            "weight": "15.5"
        },
        {
            "source": "5",
            "destination": "2",
            "weight": "13.5"
        },
        {
            "source": "2",
            "destination": "5",
            "weight": "13.5"
        },
        {
            "source": "95",
            "destination": "2",
            "weight": "40.5"
        },
        {
            "source": "96",
            "destination": "2",
            "weight": "29"
        },
        {
            "source": "2",
            "destination": "96",
            "weight": "29"
        },
        {
            "source": "97",
            "destination": "2",
            "weight": "40.8"
        },
        {
            "source": "2",
            "destination": "97",
            "weight": "40.8"
        },
        {
            "source": "2",
            "destination": "95",
            "weight": "40.5"
        },
        {
            "source": "98",
            "destination": "2",
            "weight": "10.9"
        },
        {
            "source": "2",
            "destination": "98",
            "weight": "10.9"
        },
        {
            "source": "99",
            "destination": "100",
            "weight": "23"
        },
        {
            "source": "100",
            "destination": "99",
            "weight": "23"
        },
        {
            "source": "101",
            "destination": "15",
            "weight": "43"
        },
        {
            "source": "15",
            "destination": "101",
            "weight": "43"
        },
        {
            "source": "102",
            "destination": "15",
            "weight": "11"
        },
        {
            "source": "15",
            "destination": "102",
            "weight": "11"
        },
        {
            "source": "99",
            "destination": "9",
            "weight": "15.5"
        },
        {
            "source": "9",
            "destination": "99",
            "weight": "15"
        },
        {
            "source": "52",
            "destination": "2",
            "weight": "11.1"
        },
        {
            "source": "2",
            "destination": "52",
            "weight": "11.1"
        },
        {
            "source": "99",
            "destination": "15",
            "weight": "9.5"
        },
        {
            "source": "15",
            "destination": "99",
            "weight": "9.5"
        },
        {
            "source": "64",
            "destination": "103",
            "weight": "14.2"
        },
        {
            "source": "103",
            "destination": "64",
            "weight": "14.2"
        },
        {
            "source": "17",
            "destination": "2",
            "weight": "11.6"
        },
        {
            "source": "2",
            "destination": "17",
            "weight": "11.6"
        },
        {
            "source": "17",
            "destination": "104",
            "weight": "12"
        },
        {
            "source": "2",
            "destination": "105",
            "weight": "12"
        },
        {
            "source": "3",
            "destination": "15",
            "weight": "11.3"
        },
        {
            "source": "15",
            "destination": "3",
            "weight": "11.3"
        },
        {
            "source": "106",
            "destination": "15",
            "weight": "12"
        },
        {
            "source": "15",
            "destination": "106",
            "weight": "12"
        },
        {
            "source": "3",
            "destination": "15",
            "weight": "11.3"
        },
        {
            "source": "15",
            "destination": "3",
            "weight": "11.3"
        },
        {
            "source": "85",
            "destination": "15",
            "weight": "21"
        },
        {
            "source": "15",
            "destination": "86",
            "weight": "21"
        },
        {
            "source": "83",
            "destination": "15",
            "weight": "23.4"
        },
        {
            "source": "15",
            "destination": "83",
            "weight": "23.4"
        },
        {
            "source": "107",
            "destination": "15",
            "weight": "18.8"
        },
        {
            "source": "15",
            "destination": "107",
            "weight": "18.8"
        },
        {
            "source": "103",
            "destination": "2",
            "weight": "16"
        },
        {
            "source": "2",
            "destination": "103",
            "weight": "16"
        },
        {
            "source": "108",
            "destination": "109",
            "weight": "12.1"
        },
        {
            "source": "110",
            "destination": "111",
            "weight": "12.1"
        },
        {
            "source": "112",
            "destination": "9",
            "weight": "12.1"
        },
        {
            "source": "9",
            "destination": "112",
            "weight": "12.1"
        },
        {
            "source": "113",
            "destination": "36",
            "weight": "18.4"
        },
        {
            "source": "36",
            "destination": "113",
            "weight": "18.4"
        },
        {
            "source": "114",
            "destination": "15",
            "weight": "9.7"
        },
        {
            "source": "15",
            "destination": "114",
            "weight": "9.7"
        },
        {
            "source": "115",
            "destination": "15",
            "weight": "9.2"
        },
        {
            "source": "113",
            "destination": "15",
            "weight": "9.5"
        },
        {
            "source": "15",
            "destination": "113",
            "weight": "9.5"
        },
        {
            "source": "108",
            "destination": "15",
            "weight": "10.9"
        },
        {
            "source": "15",
            "destination": "108",
            "weight": "10.9"
        },
        {
            "source": "112",
            "destination": "15",
            "weight": "13.3"
        },
        {
            "source": "15",
            "destination": "112",
            "weight": "13.3"
        },
        {
            "source": "15",
            "destination": "115",
            "weight": "9.2"
        },
        {
            "source": "116",
            "destination": "103",
            "weight": "9.6"
        },
        {
            "source": "103",
            "destination": "116",
            "weight": "9.6"
        },
        {
            "source": "116",
            "destination": "117",
            "weight": "14.2"
        },
        {
            "source": "9",
            "destination": "116",
            "weight": "14.2"
        },
        {
            "source": "118",
            "destination": "119",
            "weight": "11"
        },
        {
            "source": "119",
            "destination": "118",
            "weight": "11"
        },
        {
            "source": "28",
            "destination": "9",
            "weight": "2.8"
        },
        {
            "source": "9",
            "destination": "28",
            "weight": "2.8"
        },
        {
            "source": "118",
            "destination": "29",
            "weight": "13.2"
        },
        {
            "source": "29",
            "destination": "118",
            "weight": "13.2"
        },
        {
            "source": "18",
            "destination": "120",
            "weight": "15.5"
        },
        {
            "source": "120",
            "destination": "18",
            "weight": "15.5"
        },
        {
            "source": "121",
            "destination": "120",
            "weight": "12.3"
        },
        {
            "source": "120",
            "destination": "121",
            "weight": "12.3"
        },
        {
            "source": "114",
            "destination": "120",
            "weight": "11.5"
        },
        {
            "source": "120",
            "destination": "114",
            "weight": "11.5"
        },
        {
            "source": "3",
            "destination": "120",
            "weight": "13.8"
        },
        {
            "source": "120",
            "destination": "3",
            "weight": "13.8"
        },
        {
            "source": "122",
            "destination": "120",
            "weight": "11.5"
        },
        {
            "source": "120",
            "destination": "122",
            "weight": "11.5"
        },
        {
            "source": "123",
            "destination": "124",
            "weight": "27.9"
        },
        {
            "source": "124",
            "destination": "123",
            "weight": "27.9"
        },
        {
            "source": "125",
            "destination": "103",
            "weight": "17.4"
        },
        {
            "source": "103",
            "destination": "125",
            "weight": "14.7"
        },
        {
            "source": "18",
            "destination": "9",
            "weight": "12.1"
        },
        {
            "source": "103",
            "destination": "9",
            "weight": "9.5"
        },
        {
            "source": "9",
            "destination": "103",
            "weight": "9.5"
        },
        {
            "source": "9",
            "destination": "18",
            "weight": "12.1"
        },
        {
            "source": "126",
            "destination": "9",
            "weight": "15.3"
        },
        {
            "source": "9",
            "destination": "126",
            "weight": "15.3"
        },
        {
            "source": "126",
            "destination": "127",
            "weight": "19.6"
        },
        {
            "source": "127",
            "destination": "126",
            "weight": "16.9"
        },
        {
            "source": "128",
            "destination": "103",
            "weight": "8.3"
        },
        {
            "source": "103",
            "destination": "128",
            "weight": "8.3"
        },
        {
            "source": "9",
            "destination": "129",
            "weight": "13.3"
        },
        {
            "source": "129",
            "destination": "9",
            "weight": "13.3"
        },
        {
            "source": "103",
            "destination": "130",
            "weight": "4.7"
        },
        {
            "source": "130",
            "destination": "103",
            "weight": "4.7"
        },
        {
            "source": "15",
            "destination": "129",
            "weight": "14.2"
        },
        {
            "source": "129",
            "destination": "15",
            "weight": "14.2"
        },
        {
            "source": "15",
            "destination": "18",
            "weight": "15"
        },
        {
            "source": "18",
            "destination": "15",
            "weight": "15"
        },
        {
            "source": "7",
            "destination": "103",
            "weight": "18"
        },
        {
            "source": "103",
            "destination": "7",
            "weight": "18"
        },
        {
            "source": "131",
            "destination": "103",
            "weight": "6.7"
        },
        {
            "source": "103",
            "destination": "131",
            "weight": "6.7"
        },
        {
            "source": "132",
            "destination": "9",
            "weight": "8.5"
        },
        {
            "source": "9",
            "destination": "132",
            "weight": "8.5"
        },
        {
            "source": "133",
            "destination": "103",
            "weight": "8.7"
        },
        {
            "source": "103",
            "destination": "133",
            "weight": "8.7"
        },
        {
            "source": "126",
            "destination": "103",
            "weight": "6"
        },
        {
            "source": "103",
            "destination": "126",
            "weight": "6"
        },
        {
            "source": "134",
            "destination": "15",
            "weight": "14.5"
        },
        {
            "source": "15",
            "destination": "134",
            "weight": "14.5"
        },
        {
            "source": "135",
            "destination": "103",
            "weight": "6"
        },
        {
            "source": "103",
            "destination": "135",
            "weight": "6"
        },
        {
            "source": "136",
            "destination": "103",
            "weight": "8"
        },
        {
            "source": "103",
            "destination": "136",
            "weight": "8"
        },
        {
            "source": "137",
            "destination": "103",
            "weight": "22.8"
        },
        {
            "source": "103",
            "destination": "137",
            "weight": "22.8"
        },
        {
            "source": "138",
            "destination": "103",
            "weight": "8.5"
        },
        {
            "source": "103",
            "destination": "138",
            "weight": "8.5"
        },
        {
            "source": "112",
            "destination": "139",
            "weight": "13.1"
        },
        {
            "source": "9",
            "destination": "140",
            "weight": "13.1"
        },
        {
            "source": "103",
            "destination": "15",
            "weight": "12.4"
        },
        {
            "source": "15",
            "destination": "103",
            "weight": "12.4"
        },
        {
            "source": "4",
            "destination": "103",
            "weight": "17.6"
        },
        {
            "source": "103",
            "destination": "4",
            "weight": "17.6"
        },
        {
            "source": "141",
            "destination": "103",
            "weight": "11"
        },
        {
            "source": "103",
            "destination": "141",
            "weight": "11"
        },
        {
            "source": "51",
            "destination": "30",
            "weight": "7.6"
        },
        {
            "source": "30",
            "destination": "51",
            "weight": "7.6"
        },
        {
            "source": "106",
            "destination": "30",
            "weight": "9"
        },
        {
            "source": "30",
            "destination": "106",
            "weight": "9"
        },
        {
            "source": "51",
            "destination": "106",
            "weight": "16.6"
        },
        {
            "source": "106",
            "destination": "51",
            "weight": "16.6"
        },
        {
            "source": "103",
            "destination": "142",
            "weight": "3"
        },
        {
            "source": "142",
            "destination": "103",
            "weight": "3"
        },
        {
            "source": "9",
            "destination": "142",
            "weight": "12.4"
        },
        {
            "source": "142",
            "destination": "9",
            "weight": "12.4"
        },
        {
            "source": "35",
            "destination": "18",
            "weight": "34.3"
        },
        {
            "source": "18",
            "destination": "35",
            "weight": "34.3"
        },
        {
            "source": "143",
            "destination": "100",
            "weight": "13.1"
        },
        {
            "source": "143",
            "destination": "9",
            "weight": "13.1"
        },
        {
            "source": "9",
            "destination": "143",
            "weight": "3"
        },
        {
            "source": "100",
            "destination": "103",
            "weight": "19.2"
        },
        {
            "source": "103",
            "destination": "144",
            "weight": "19.2"
        },
        {
            "source": "15",
            "destination": "18",
            "weight": "12.6"
        },
        {
            "source": "15",
            "destination": "103",
            "weight": "10"
        },
        {
            "source": "103",
            "destination": "15",
            "weight": "10"
        },
        {
            "source": "15",
            "destination": "66",
            "weight": "13.5"
        },
        {
            "source": "66",
            "destination": "15",
            "weight": "13.5"
        },
        {
            "source": "18",
            "destination": "15",
            "weight": "12.6"
        },
        {
            "source": "43",
            "destination": "18",
            "weight": "31.9"
        },
        {
            "source": "18",
            "destination": "43",
            "weight": "31.9"
        },
        {
            "source": "21",
            "destination": "103",
            "weight": "26.5"
        },
        {
            "source": "103",
            "destination": "21",
            "weight": "26.5"
        },
        {
            "source": "145",
            "destination": "103",
            "weight": "26.8"
        },
        {
            "source": "103",
            "destination": "145",
            "weight": "26.8"
        },
        {
            "source": "146",
            "destination": "103",
            "weight": "23"
        },
        {
            "source": "103",
            "destination": "146",
            "weight": "23"
        },
        {
            "source": "146",
            "destination": "9",
            "weight": "32.7"
        },
        {
            "source": "9",
            "destination": "146",
            "weight": "32.7"
        },
        {
            "source": "44",
            "destination": "103",
            "weight": "28.2"
        },
        {
            "source": "103",
            "destination": "44",
            "weight": "28.2"
        },
        {
            "source": "1",
            "destination": "103",
            "weight": "36.3"
        },
        {
            "source": "103",
            "destination": "1",
            "weight": "36.3"
        },
        {
            "source": "147",
            "destination": "148",
            "weight": "3.4"
        },
        {
            "source": "148",
            "destination": "147",
            "weight": "3.4"
        },
        {
            "source": "103",
            "destination": "9",
            "weight": "9.5"
        },
        {
            "source": "9",
            "destination": "103",
            "weight": "9.5"
        },
        {
            "source": "15",
            "destination": "147",
            "weight": "9.5"
        },
        {
            "source": "147",
            "destination": "15",
            "weight": "9.5"
        },
        {
            "source": "99",
            "destination": "7",
            "weight": "21.9"
        },
        {
            "source": "7",
            "destination": "99",
            "weight": "21.9"
        },
        {
            "source": "149",
            "destination": "9",
            "weight": "8.6"
        },
        {
            "source": "9",
            "destination": "149",
            "weight": "8.6"
        },
        {
            "source": "9",
            "destination": "149",
            "weight": "7.5"
        },
        {
            "source": "149",
            "destination": "9",
            "weight": "7.5"
        },
        {
            "source": "19",
            "destination": "7",
            "weight": "7.7"
        },
        {
            "source": "7",
            "destination": "19",
            "weight": "7.7"
        },
        {
            "source": "69",
            "destination": "150",
            "weight": "16.5"
        },
        {
            "source": "150",
            "destination": "69",
            "weight": "16.5"
        },
        {
            "source": "19",
            "destination": "150",
            "weight": "7.7"
        },
        {
            "source": "150",
            "destination": "19",
            "weight": "7.7"
        },
        {
            "source": "150",
            "destination": "150",
            "weight": "15.5"
        },
        {
            "source": "151",
            "destination": "7",
            "weight": "3.8"
        },
        {
            "source": "7",
            "destination": "151",
            "weight": "3.8"
        },
        {
            "source": "151",
            "destination": "9",
            "weight": "9.9"
        },
        {
            "source": "9",
            "destination": "151",
            "weight": "9.9"
        },
        {
            "source": "151",
            "destination": "152",
            "weight": "7"
        },
        {
            "source": "152",
            "destination": "151",
            "weight": "7"
        },
        {
            "source": "12",
            "destination": "7",
            "weight": "23"
        },
        {
            "source": "7",
            "destination": "12",
            "weight": "23"
        },
        {
            "source": "153",
            "destination": "9",
            "weight": "9.5"
        },
        {
            "source": "9",
            "destination": "153",
            "weight": "9.5"
        },
        {
            "source": "154",
            "destination": "9",
            "weight": "12.2"
        },
        {
            "source": "9",
            "destination": "154",
            "weight": "12.2"
        },
        {
            "source": "21",
            "destination": "9",
            "weight": "14.85"
        },
        {
            "source": "48",
            "destination": "9",
            "weight": "15.1"
        },
        {
            "source": "9",
            "destination": "48",
            "weight": "15.1"
        },
        {
            "source": "9",
            "destination": "21",
            "weight": "14.85"
        },
        {
            "source": "26",
            "destination": "15",
            "weight": "15.9"
        },
        {
            "source": "15",
            "destination": "26",
            "weight": "15.9"
        },
        {
            "source": "51",
            "destination": "30",
            "weight": "7.6"
        },
        {
            "source": "30",
            "destination": "51",
            "weight": "7.6"
        },
        {
            "source": "155",
            "destination": "30",
            "weight": "33.5"
        },
        {
            "source": "30",
            "destination": "155",
            "weight": "33.5"
        },
        {
            "source": "72",
            "destination": "9",
            "weight": "6"
        },
        {
            "source": "9",
            "destination": "72",
            "weight": "6"
        },
        {
            "source": "51",
            "destination": "72",
            "weight": "10"
        },
        {
            "source": "72",
            "destination": "51",
            "weight": "10"
        },
        {
            "source": "15",
            "destination": "150",
            "weight": "10.9"
        },
        {
            "source": "150",
            "destination": "15",
            "weight": "10.9"
        },
        {
            "source": "156",
            "destination": "30",
            "weight": "35.6"
        },
        {
            "source": "30",
            "destination": "156",
            "weight": "35.6"
        },
        {
            "source": "102",
            "destination": "2",
            "weight": "14"
        },
        {
            "source": "2",
            "destination": "102",
            "weight": "14"
        },
        {
            "source": "102",
            "destination": "7",
            "weight": "22.4"
        },
        {
            "source": "7",
            "destination": "102",
            "weight": "22.4"
        },
        {
            "source": "157",
            "destination": "2",
            "weight": "13.5"
        },
        {
            "source": "2",
            "destination": "157",
            "weight": "13.5"
        },
        {
            "source": "102",
            "destination": "100",
            "weight": "24.2"
        },
        {
            "source": "100",
            "destination": "102",
            "weight": "24.2"
        },
        {
            "source": "15",
            "destination": "49",
            "weight": "11.4"
        },
        {
            "source": "49",
            "destination": "15",
            "weight": "11.4"
        },
        {
            "source": "158",
            "destination": "7",
            "weight": "18"
        },
        {
            "source": "7",
            "destination": "158",
            "weight": "18"
        },
        {
            "source": "5",
            "destination": "7",
            "weight": "21.1"
        },
        {
            "source": "7",
            "destination": "5",
            "weight": "21.1"
        },
        {
            "source": "158",
            "destination": "7",
            "weight": "18"
        },
        {
            "source": "15",
            "destination": "7",
            "weight": "10.8"
        },
        {
            "source": "7",
            "destination": "15",
            "weight": "10.8"
        },
        {
            "source": "7",
            "destination": "158",
            "weight": "18"
        },
        {
            "source": "159",
            "destination": "36",
            "weight": "12.4"
        },
        {
            "source": "36",
            "destination": "159",
            "weight": "12.4"
        },
        {
            "source": "159",
            "destination": "2",
            "weight": "21.6"
        },
        {
            "source": "2",
            "destination": "159",
            "weight": "21.6"
        },
        {
            "source": "160",
            "destination": "2",
            "weight": "11"
        },
        {
            "source": "2",
            "destination": "160",
            "weight": "11"
        },
        {
            "source": "12",
            "destination": "2",
            "weight": "13.5"
        },
        {
            "source": "161",
            "destination": "2",
            "weight": "8.1"
        },
        {
            "source": "2",
            "destination": "161",
            "weight": "8.1"
        },
        {
            "source": "2",
            "destination": "12",
            "weight": "13.5"
        },
        {
            "source": "35",
            "destination": "64",
            "weight": "24"
        },
        {
            "source": "64",
            "destination": "35",
            "weight": "24"
        },
        {
            "source": "162",
            "destination": "163",
            "weight": "11.8"
        },
        {
            "source": "163",
            "destination": "162",
            "weight": "11.8"
        },
        {
            "source": "162",
            "destination": "2",
            "weight": "31.3"
        },
        {
            "source": "2",
            "destination": "162",
            "weight": "31.3"
        },
        {
            "source": "164",
            "destination": "2",
            "weight": "38"
        },
        {
            "source": "2",
            "destination": "164",
            "weight": "38"
        },
        {
            "source": "51",
            "destination": "165",
            "weight": "10.2"
        },
        {
            "source": "165",
            "destination": "51",
            "weight": "10.2"
        },
        {
            "source": "43",
            "destination": "100",
            "weight": "24.9"
        },
        {
            "source": "100",
            "destination": "43",
            "weight": "24.9"
        },
        {
            "source": "80",
            "destination": "166",
            "weight": "10"
        },
        {
            "source": "166",
            "destination": "80",
            "weight": "10"
        },
        {
            "source": "23",
            "destination": "166",
            "weight": "24"
        },
        {
            "source": "166",
            "destination": "23",
            "weight": "24"
        },
        {
            "source": "167",
            "destination": "168",
            "weight": "28.6"
        },
        {
            "source": "11",
            "destination": "167",
            "weight": "6"
        },
        {
            "source": "168",
            "destination": "11",
            "weight": "34.6"
        },
        {
            "source": "11",
            "destination": "168",
            "weight": "34.6"
        },
        {
            "source": "51",
            "destination": "150",
            "weight": "10.9"
        },
        {
            "source": "150",
            "destination": "51",
            "weight": "10.9"
        },
        {
            "source": "2",
            "destination": "169",
            "weight": "9.9"
        },
        {
            "source": "169",
            "destination": "2",
            "weight": "9.9"
        },
        {
            "source": "44",
            "destination": "100",
            "weight": "28.4"
        },
        {
            "source": "100",
            "destination": "44",
            "weight": "28.4"
        },